{
  "client": {
    "id": "main",
    "name": "COMUNEROS 40.96873231889307, -5.6542922864514615",
    "lat": 40.96873231889307,
    "lon": -5.6542922864514615
  },
  "competitors": [
    {
      "name": "MAUX 2 40.97344930695716, -5.656752378573738",
      "lat": 40.97344930695716,
      "lon": -5.656752378573738,
      "id": 1
    },
    {
      "name": "BORNEO",
      "lat": 40.97117592696751,
      "lon": -5.643031204407717,
      "id": 2
    },
    {
      "name": "BARCELONA 40.97409413015323, -5.650081621925729",
      "lat": 40.97409413015323,
      "lon": -5.650081621925729,
      "id": 3
    },
    {
      "name": "JUNCIEL 40.964845508916405, -5.654969497680499",
      "lat": 40.964845508916405,
      "lon": -5.654969497680499,
      "id": 4
    },
    {
      "name": "CAMINO LAS AGUAS 40.96293662015096, -5.650173470809265",
      "lat": 40.96293662015096,
      "lon": -5.650173470809265,
      "id": 5
    },
    {
      "name": "SAN JUSTO 40.96298770361134, -5.661363467288797",
      "lat": 40.96298770361134,
      "lon": -5.661363467288797,
      "id": 6
    },
    {
      "name": "GRAN VIA 40.966571696539134, -5.659797000266032",
      "lat": 40.966571696539134,
      "lon": -5.659797000266032,
      "id": 7
    },
    {
      "name": "LICEO 40.96630600600534, -5.662479512411319",
      "lat": 40.96630600600534,
      "lon": -5.662479512411319,
      "id": 8
    },
    {
      "name": "FEDERICO ANAYA 40.9768835377556, -5.653968017957961",
      "lat": 40.9768835377556,
      "lon": -5.653968017957961,
      "id": 9
    },
    {
      "name": "ALFONSO VI 40.97609795548328, -5.660627195027216",
      "lat": 40.97609795548328,
      "lon": -5.660627195027216,
      "id": 10
    },
    {
      "name": "ALFONSO DE CASTRO 40.97325611289172, -5.659909263363787",
      "lat": 40.97325611289172,
      "lon": -5.659909263363787,
      "id": 11
    },
    {
      "name": "Plaza España 40.96883052850552, -5.658541412144628",
      "lat": 40.96883052850552,
      "lon": -5.658541412144628,
      "id": 12
    },
    {
      "name": "Colombia 40.9686991026959, -5.646781505861961",
      "lat": 40.9686991026959,
      "lon": -5.646781505861961,
      "id": 13
    },
    {
      "name": "ROLLO 40.965420762602285, -5.652622172792645",
      "lat": 40.965420762602285,
      "lon": -5.652622172792645,
      "id": 14
    },
    {
      "name": "MAUX 1 40.971452900436084, -5.6581272324366925",
      "lat": 40.971452900436084,
      "lon": -5.6581272324366925,
      "id": 15
    },
    {
      "name": "JOSE JAUREGI 40.969582257725996, -5.6631798827414555",
      "lat": 40.969582257725996,
      "lon": -5.6631798827414555,
      "id": 16
    },
    {
      "name": "CALLE ZAMORA 40.96803355184021, -5.663777456314059",
      "lat": 40.96803355184021,
      "lon": -5.663777456314059,
      "id": 17
    },
    {
      "name": "PLAZA MAYOR 40.964669374419486, -5.66418059917291",
      "lat": 40.964669374419486,
      "lon": -5.66418059917291,
      "id": 18
    },
    {
      "name": "PRIOR 40.9648630324207, -5.6647122121681885",
      "lat": 40.9648630324207,
      "lon": -5.6647122121681885,
      "id": 19
    },
    {
      "name": "LA RUA 40.963725187635546, -5.6650555429763605",
      "lat": 40.96369176816119,
      "lon": -5.6649233400821695,
      "id": 20,
      "latRad": 0.7149518784063722,
      "lonRad": -0.09887387153329262,
      "cosLat": 0.7551247896921622,
      "sinLat": 0.655581079647947
    },
    {
      "name": "PASEO SAN VICENTE 40.96609369745777, -5.67081434554307",
      "lat": 40.96609369745777,
      "lon": -5.67081434554307,
      "id": 21
    },
    {
      "name": "FILIBERTO VILLALOBOS 40.96926741692479, -5.673387695340005",
      "lat": 40.96926741692479,
      "lon": -5.673387695340005,
      "id": 22
    },
    {
      "name": "ESTACION DE AUTOBUSES 40.97064096650322, -5.674382558138006",
      "lat": 40.97063853666237,
      "lon": -5.67439690232277,
      "id": 23,
      "latRad": 0.7150725815179529,
      "lonRad": -0.09903665865724676,
      "cosLat": 0.7550456535153498,
      "sinLat": 0.6556722207838138
    },
    {
      "name": "WENCES MORENO 40.970481886215524, -5.667040650869067",
      "lat": 40.970481886215524,
      "lon": -5.667040650869067,
      "id": 24
    },
    {
      "name": "AVENIDA PORTUGAL 40.97273901184702, -5.6639608283472285",
      "lat": 40.97273901184702,
      "lon": -5.6639608283472285,
      "id": 25
    },
    {
      "name": "AVENIDA PORTUGAL CON AVENIDA ITALIA 40.97288816242733, -5.668651521108666",
      "lat": 40.97288816242733,
      "lon": -5.668651521108666,
      "id": 26
    },
    {
      "name": "AVENIDA ITALIA 40.971293631492614, -5.665944620590063",
      "lat": 40.971278493704006,
      "lon": -5.665951967239381,
      "id": 27,
      "latRad": 0.7150839726709304,
      "lonRad": -0.0988893888649575,
      "cosLat": 0.7550381846037932,
      "sinLat": 0.6556808215818184
    },
    {
      "name": "AVENIDA VILLAMAYOR 40.969708275274655, -5.669627682361173",
      "lat": 40.969708275274655,
      "lon": -5.669627682361173,
      "id": 28
    },
    {
      "name": "CRT LEDESMA 40.97610950581667, -5.674710549940416",
      "lat": 40.97610950581667,
      "lon": -5.674710549940416,
      "id": 29
    }
  ]
}